[
  {
    "Address": "193 Bluff Road",
    "Fax": "(03) 9598 1539",
    "Latitude": -37.9609937672197,
    "Longitude": 145.017736097785,
    "Name": "Sandringham and District Memorial Hospital",
    "Phone": "(03) 9076 1000",
    "Postcode": 3191,
    "Suburb": " Sandringham"
  },
  {
    "Address": "8 Arnold Street",
    "Fax": "(03) 9895 3268",
    "Latitude": -37.8135267761972,
    "Longitude": 145.118298426617,
    "Name": "Box Hill Hospital\n",
    "Phone": "1300 342 255",
    "Postcode": 3128,
    "Suburb": "Box Hill"
  },
  {
    "Address": "Davey Drive",
    "Fax": "(03) 9879 1570",
    "Latitude": -37.8069432031075,
    "Longitude": 145.254518055453,
    "Name": "Maroondah Hospital",
    "Phone": "(03) 9871 3333",
    "Postcode": 3135,
    "Suburb": "Ringwood East"
  },
  {
    "Address": "Hastings Road",
    "Fax": "(03) 9783 8758",
    "Latitude": -38.1514164276291,
    "Longitude": 145.129469129037,
    "Name": "Frankston Hospital",
    "Phone": "(03) 9784 7777",
    "Postcode": 3199,
    "Suburb": "Frankston"
  },
  {
    "Address": "Albert Street",
    "Fax": "(03) 9764 6399",
    "Latitude": -37.8986684252151,
    "Longitude": 145.313711413551,
    "Name": "Angliss Hospital",
    "Phone": "(03) 9764 6111",
    "Postcode": 3156,
    "Suburb": "Upper Ferntree Gully"
  },
  {
    "Address": "300 Grattan Street",
    "Fax": "(03) 9342 7802",
    "Latitude": -37.7986410117952,
    "Longitude": 144.955988676531,
    "Name": "Royal Melbourne Hospital",
    "Phone": "(03) 9342 7000",
    "Postcode": 3052,
    "Suburb": "Parkville"
  },
  {
    "Address": "41 Victoria Parade",
    "Fax": "(03) 9288 3918",
    "Latitude": -37.8070134115409,
    "Longitude": 144.97496918362,
    "Name": "St Vincent's Hospital",
    "Phone": "(03) 9288 2211",
    "Postcode": 3065,
    "Suburb": "Fitzroy"
  },
  {
    "Address": "185 Cooper Street",
    "Fax": "(03) 8405 8405",
    "Latitude": -37.6535066855536,
    "Longitude": 145.014547826612,
    "Name": "The Northern Hospital",
    "Phone": "(03) 8405 8540",
    "Postcode": 3076,
    "Suburb": " Epping"
  },
  {
    "Address": "160 Gordon Street",
    "Fax": "(03) 9318 7815",
    "Latitude": -37.7928744989005,
    "Longitude": 144.888994731225,
    "Name": "Western Hospital",
    "Phone": "(03) 8345 6666",
    "Postcode": 3011,
    "Suburb": "Footscray"
  },
  {
    "Address": "176 Furlong Road",
    "Fax": "(03) 9366 0088",
    "Latitude": -37.7596558269221,
    "Longitude": 144.817051252567,
    "Name": "Sunshine Hospital",
    "Phone": "(03) 8345 1333",
    "Postcode": 3021,
    "Suburb": "St Albans"
  },
  {
    "Address": "246 Clayton Road",
    "Fax": "(03) 9594 6111",
    "Latitude": -37.919959051312,
    "Longitude": 145.12423684826,
    "Name": "Monash Medical Centre",
    "Phone": "(03) 9594 6666",
    "Postcode": 3168,
    "Suburb": "Clayton"
  },
  {
    "Address": "105-135 David Street",
    "Fax": "(03) 9554 1120",
    "Latitude": -37.9764441828407,
    "Longitude": 145.219219694926,
    "Name": "Dandenong Hospital",
    "Phone": "(03) 9554 1000",
    "Postcode": 3175,
    "Suburb": "Dandenong"
  },
  {
    "Address": "145 Studley Road",
    "Fax": "(03) 9458 4779",
    "Latitude": -37.7562639333065,
    "Longitude": 145.058631179398,
    "Name": "Austin Hospital",
    "Phone": "(03) 9496 5000",
    "Postcode": 3084,
    "Suburb": "Heidelberg"
  },
  {
    "Address": "50 Flemington Road\n",
    "Fax": "(03) 9345 5789",
    "Latitude": -37.7935366683978,
    "Longitude": 144.949672188012,
    "Name": "The Royal Children's Hospital",
    "Phone": "(03) 9345 5522",
    "Postcode": 3052,
    "Suburb": "Parkville"
  },
  {
    "Address": "75 Commercial Road\n",
    "Fax": "(03) 9276 2222",
    "Latitude": -37.8461537663893,
    "Longitude": 144.982749683117,
    "Name": "The Alfred",
    "Phone": "(03) 9276 2000",
    "Postcode": 3004,
    "Suburb": "Melbourne"
  },
  {
    "Address": "52 Kangan Drive",
    "Fax": "(03) 8768 1982",
    "Latitude": -38.0450121115533,
    "Longitude": 145.346118173627,
    "Name": "Casey Hospital",
    "Phone": "(03) 8768 1200",
    "Postcode": 3806,
    "Suburb": "Berwick"
  },
  {
    "Address": "300 Princes Highway",
    "Fax": "(03) 8754 3211",
    "Latitude": -37.8870648945322,
    "Longitude": 144.698109596122,
    "Name": "Werribee Mercy Hospital",
    "Phone": "(03) 8754 3000",
    "Postcode": 3030,
    "Suburb": "Werribee"
  },
  {
    "Address": "20 Flemington Road",
    "Latitude": -37.7988124979261,
    "Longitude": 144.955200858038,
    "Name": "The Royal Women's Hospital",
    "Phone": "(03) 8345 2000",
    "Postcode": 3052,
    "Suburb": "Parkville"
  },
  {
    "Address": "The Royal Women’s Hospital, 8/20 Flemington Rd",
    "Latitude": -37.7989321915545,
    "Longitude": 144.955143919163,
    "Name": "Women’s Obstetric and Gynaecology Specialists",
    "Phone": " (03) 9348 1110",
    "Postcode": 3052,
    "Suburb": "Parkville"
  }
]